header: 
  seq: 3452
  stamp: 
    secs: 34
    nsecs: 535000000
  frame_id: ''
name: [FR_FLIPPER, FL_FLIPPER, BR_FLIPPER, BL_FLIPPER, SHOULDER, ARM, FOREARM, WRIST1, WRIST2,
  HAND, FINGER1, FINGER2, FINGER3]
position: [2.7917388344643468e-11, 1.0334346984934573e-11, -2.0535954338950224e-10, -2.0562064800399432e-10, -1.5707959999794694, 2.635447000355466, 0.47123900046064104, -1.6231560000060326, 0.10471999999911569, 1.7453290000054371, 5.418110404775686e-12, 3.8145597791583425e-12, 4.5261155934284115e-12]
velocity: [-9.300245939394827e-10, -7.698712898398548e-10, 7.787307419536089e-10, 9.825439380089975e-10, -3.836559344992471e-10, 3.501732513610616e-09, 1.177339263608387e-09, 7.129127826258707e-11, 6.350575843205792e-11, 1.6828009716139024e-11, -8.91352889228551e-12, 1.553621646479999e-11, 4.909242960370069e-12]
effort: [-0.25159847936117585, -0.07606575904712257, 2.0354720677666296, 2.0412915314883815, -0.20617381581397062, -3.645612774130162, -4.651254590660164, 0.06370126082457035, 0.010108973686206685, -0.05359251976756193, -0.05412284926482919, -0.03850423917283084, -0.045403210514492816]
---
header: 
  seq: 3453
  stamp: 
    secs: 34
    nsecs: 545000000
  frame_id: ''
name: [FR_FLIPPER, FL_FLIPPER, BR_FLIPPER, BL_FLIPPER, SHOULDER, ARM, FOREARM, WRIST1, WRIST2,
  HAND, FINGER1, FINGER2, FINGER3]
position: [2.705276421714059e-11, 9.789784217659194e-12, -2.050852431672093e-10, -2.0450345442676182e-10, -1.5707959999804046, 2.635447000356915, 0.47123900046221256, -1.6231560000059426, 0.10471999999901027, 1.74532900000535, 5.40081868116715e-12, 3.835654016626221e-12, 4.54895149326617e-12]
velocity: [-2.857601786610356e-11, -2.0024814806492455e-10, 2.363781064191882e-10, 1.6191401317676366e-10, 6.006613874445188e-10, 4.1777126148337557e-10, 1.2946156390471105e-10, -2.60289643282626e-10, -1.1688239325235677e-10, -5.221663344180468e-11, 4.122495395172258e-12, -4.6821898474274224e-12, -6.199867015528212e-12]
effort: [-0.27631606550216903, -0.08331870240985467, 2.0299592961995256, 2.0400105632637446, -0.26538209172505517, -3.5964352668923416, -4.619357072390154, 0.08635504314911073, 0.020528301984654697, -0.04915065868005942, -0.05459325527692468, -0.03767732065297654, -0.04464111129099405]
---
header: 
  seq: 3454
  stamp: 
    secs: 34
    nsecs: 555000000
  frame_id: ''
name: [FR_FLIPPER, FL_FLIPPER, BR_FLIPPER, BL_FLIPPER, SHOULDER, ARM, FOREARM, WRIST1, WRIST2,
  HAND, FINGER1, FINGER2, FINGER3]
position: [3.5085193539514954e-11, 1.514281224284514e-11, -2.1181185288782908e-10, -2.1443961493658464e-10, -1.5707959999717354, 2.6354470003285946, 0.4712390004522797, -1.623156000008478, 0.10471999999780147, 1.7453290000049761, 5.538403069493825e-12, 3.647915303162107e-12, 4.441703949087383e-12]
velocity: [1.1215955131516479e-09, 5.841798887374407e-10, -6.803557428694413e-10, -1.425626062414632e-09, 1.826181776982694e-09, -3.5647934265189723e-09, -1.3651373691079345e-09, -5.779172551120946e-10, -2.439747606493367e-10, -7.928892750987713e-11, 2.5269934900513477e-11, -3.2092130014143474e-11, -2.280764301492584e-11]
effort: [-0.38268592437037396, -0.15631565347280135, 2.1188937359131064, 2.1876033174696605, -0.3785395528050491, -3.212654832138924, -4.485593925066567, 0.11720115215587217, 0.03430062773771986, -0.045576756752445866, -0.05653502214622445, -0.03514714371181444, -0.04320838812825953]
---
header: 
  seq: 3455
  stamp: 
    secs: 34
    nsecs: 565000000
  frame_id: ''
name: [FR_FLIPPER, FL_FLIPPER, BR_FLIPPER, BL_FLIPPER, SHOULDER, ARM, FOREARM, WRIST1, WRIST2,
  HAND, FINGER1, FINGER2, FINGER3]
position: [2.936653155892477e-11, 1.2844076713661168e-11, -2.0753458652121581e-10, -2.0727010450853622e-10, -1.570795999983433, 2.635447000347291, 0.4712390004583187, -1.6231560000043033, 0.10471999999977175, 1.7453290000057282, 5.395822677556336e-12, 3.830047390351862e-12, 4.570004097370625e-12]
velocity: [-5.15446848360751e-10, -1.0796933719450279e-10, 2.091868634934122e-10, 5.584227459057355e-10, -1.432292436801057e-09, 1.3021677719769375e-09, 5.572797825419825e-10, 5.003122623285063e-10, 2.045709440765332e-10, 7.409436387897281e-11, -1.628265016724699e-11, 2.0516680882477465e-11, 1.786984337623835e-11]
effort: [-0.29930644394089156, -0.14063129217502668, 2.0972024234609496, 2.08855562721203, -0.13942118882147497, -3.416158754695084, -4.57852065419002, 0.03474801025783698, 0.0015275057904330614, -0.057171666096220236, -0.05375574939504286, -0.03853081535128894, -0.04620402322481359]
---
header: 
  seq: 3456
  stamp: 
    secs: 34
    nsecs: 575000000
  frame_id: ''
name: [FR_FLIPPER, FL_FLIPPER, BR_FLIPPER, BL_FLIPPER, SHOULDER, ARM, FOREARM, WRIST1, WRIST2,
  HAND, FINGER1, FINGER2, FINGER3]
position: [2.613465411964444e-11, 8.678656101060445e-12, -2.0305349860295224e-10, -2.0486023738931078e-10, -1.5707959999798586, 2.6354470003611867, 0.47123900046368095, -1.6231560000062157, 0.10471999999895927, 1.7453290000053272, 5.402206459947931e-12, 3.844230489491448e-12, 4.5432616002649655e-12]
velocity: [-1.2873359887596088e-10, -2.6215764167189997e-10, 1.2471348114236858e-10, -3.5260970632081955e-11, 4.944339189563823e-10, 5.824370638150435e-10, 3.239696530861493e-10, -2.1575416964890073e-10, -9.124489100578013e-11, -3.8725059002524377e-11, 3.8109255122204485e-12, -3.169664361829021e-12, -4.677529252140721e-12]
effort: [-0.28079245816000353, -0.10222500449869563, 2.062875356947054, 2.076227370827552, -0.21511699060116776, -3.53115449840916, -4.615583619773666, 0.0646077533657425, 0.011406219190854886, -0.05341069186805561, -0.05433925034181779, -0.03798345616226869, -0.045232231402045825]
---
header: 
  seq: 3457
  stamp: 
    secs: 34
    nsecs: 585000000
  frame_id: ''
name: [FR_FLIPPER, FL_FLIPPER, BR_FLIPPER, BL_FLIPPER, SHOULDER, ARM, FOREARM, WRIST1, WRIST2,
  HAND, FINGER1, FINGER2, FINGER3]
position: [3.2500331093900103e-11, 1.4417972458297124e-11, -2.094300782058342e-10, -2.0958468261670499e-10, -1.570795999977913, 2.6354470003373316, 0.47123900045467104, -1.6231560000062326, 0.10471999999885943, 1.7453290000053814, 5.4614646138873e-12, 3.7376490791274356e-12, 4.505236461671556e-12]
velocity: [-2.755871364234886e-10, -1.4858180471866395e-10, 3.883614961296124e-10, 1.0816129190502922e-09, -4.071480031176052e-10, 1.3992558422478042e-09, 1.5822338790507127e-10, 1.4059524854103108e-10, 8.218167881918355e-11, 2.827680790753537e-11, -7.638699525403454e-12, 7.878766402755353e-12, 2.408404565332561e-12]
effort: [-0.23378697232099566, -0.07192843749758958, 1.9916960045553143, 1.940430740213908, -0.16068689262042699, -3.7517916721211444, -4.65263178281323, 0.0480990881521363, 0.0021899100243234597, -0.05610007038458993, -0.053258218154637146, -0.03923018376733007, -0.04567346964980928]
---
header: 
  seq: 3458
  stamp: 
    secs: 34
    nsecs: 595000000
  frame_id: ''
name: [FR_FLIPPER, FL_FLIPPER, BR_FLIPPER, BL_FLIPPER, SHOULDER, ARM, FOREARM, WRIST1, WRIST2,
  HAND, FINGER1, FINGER2, FINGER3]
position: [2.783008784361385e-11, 1.140900958776503e-11, -2.0657969280503397e-10, -2.0377129345862388e-10, -1.5707959999837053, 2.6354470003526607, 0.4712390004606945, -1.6231560000045138, 0.10471999999960133, 1.7453290000056083, 5.378558709523415e-12, 3.856526209489173e-12, 4.5842704632370604e-12]
velocity: [-1.1614109513611614e-10, 7.968206047640784e-11, -1.54570468375169e-10, -3.445315967494552e-11, -7.364978838189973e-10, -1.1723154548531392e-10, 1.5904419650822664e-10, 2.562886729166216e-10, 8.502554074856955e-11, 2.9559991033480394e-11, -7.352902461009069e-12, 8.627335028133146e-12, 1.0284870548361634e-11]
effort: [-0.3133887511279493, -0.15214790070784906, 2.1097594457142765, 2.099293844581301, -0.14721690180569685, -3.3615895102794577, -4.562610636851231, 0.036698596919984, 0.002903366156577821, -0.056769959350793944, -0.05387934758867127, -0.03823922708552515, -0.04608086437319882]
---
header: 
  seq: 3459
  stamp: 
    secs: 34
    nsecs: 605000000
  frame_id: ''
name: [FR_FLIPPER, FL_FLIPPER, BR_FLIPPER, BL_FLIPPER, SHOULDER, ARM, FOREARM, WRIST1, WRIST2,
  HAND, FINGER1, FINGER2, FINGER3]
position: [2.93848164117233e-11, 1.1976812011767202e-11, -2.066080505465362e-10, -2.085580541816637e-10, -1.5707959999805345, 2.635447000347371, 0.471239000459197, -1.623156000005755, 0.10471999999894425, 1.745329000005332, 5.413058890013642e-12, 3.8100633759086114e-12, 4.5545303639649124e-12]
velocity: [3.7420305265984915e-10, 3.7143349167946167e-10, -4.1904849816212623e-10, -7.653833719139758e-10, -3.026385529966573e-11, -1.6407598967272682e-09, -4.831632123452984e-10, 3.865603575098985e-11, -5.73587471645536e-12, 3.9155559865897653e-13, 2.25738324128416e-12, -4.578429416359413e-12, 8.145312914754806e-13]
effort: [-0.3157202411421228, -0.15123355122019003, 2.1076962295841835, 2.1142550603154286, -0.15991137558933333, -3.3625292354017224, -4.5586257080566535, 0.04127375049527923, 0.004561188142315156, -0.05612227462558921, -0.05401133179285926, -0.03810742272908412, -0.04592417319725462]
---
header: 
  seq: 3460
  stamp: 
    secs: 34
    nsecs: 615000000
  frame_id: ''
name: [FR_FLIPPER, FL_FLIPPER, BR_FLIPPER, BL_FLIPPER, SHOULDER, ARM, FOREARM, WRIST1, WRIST2,
  HAND, FINGER1, FINGER2, FINGER3]
position: [3.1719894072468335e-11, 1.31710388038761e-11, -2.067851165906548e-10, -2.1032788444924622e-10, -1.5707959999761314, 2.6354470003417165, 0.47123900045584144, -1.6231560000068816, 0.10471999999872245, 1.7453290000053443, 5.476868958353973e-12, 3.730127318135599e-12, 4.48036052702605e-12]
velocity: [-5.933732346062446e-10, -3.0618124143384016e-10, 5.772312299841623e-10, 8.644323438920952e-10, -9.150118795975241e-10, 2.2594758977003445e-09, 6.133718182065819e-10, 3.4331271124224165e-10, 1.932232382506548e-10, 7.89472018184796e-11, -1.215903219565737e-11, 1.515899675853454e-11, 7.525647010842825e-12]
effort: [-0.23451270791312873, -0.08915035604880468, 2.008362430208272, 1.999134453665885, -0.10313940543265816, -3.699656773713382, -4.6533082322692225, 0.02321954001471335, -0.008763548923284743, -0.06121612695079057, -0.05291465989094625, -0.03961649315827579, -0.04629782919124339]
---
header: 
  seq: 3461
  stamp: 
    secs: 34
    nsecs: 625000000
  frame_id: ''
name: [FR_FLIPPER, FL_FLIPPER, BR_FLIPPER, BL_FLIPPER, SHOULDER, ARM, FOREARM, WRIST1, WRIST2,
  HAND, FINGER1, FINGER2, FINGER3]
position: [2.6956178391865374e-11, 1.0153078898456071e-11, -2.0546579606976758e-10, -2.0509903812197114e-10, -1.5707959999822874, 2.6354470003574817, 0.4712390004618802, -1.6231560000051375, 0.10471999999940729, 1.7453290000055202, 5.383665735436693e-12, 3.856331920459866e-12, 4.566021172269784e-12]
velocity: [-4.87330473534286e-10, -5.657763270743437e-10, 4.587982843150892e-10, 5.789841655819556e-10, 2.763897234450127e-10, 2.1076201674769593e-09, 7.125366470173922e-10, -1.880274609982007e-10, -8.188932131293166e-11, -4.602543825030678e-11, -1.9104446509690222e-12, 5.034690176487101e-12, -1.263524378639692e-12]
effort: [-0.26846709002300573, -0.0751328770859353, 2.021971942731042, 2.045381695092166, -0.2663320466353136, -3.6279259529240853, -4.629668544076889, 0.08761951312444657, 0.02096181087054834, -0.04884167810096828, -0.05457753806729398, -0.03780467851580144, -0.04467718255742381]
---
header: 
  seq: 3462
  stamp: 
    secs: 34
    nsecs: 635000000
  frame_id: ''
name: [FR_FLIPPER, FL_FLIPPER, BR_FLIPPER, BL_FLIPPER, SHOULDER, ARM, FOREARM, WRIST1, WRIST2,
  HAND, FINGER1, FINGER2, FINGER3]
position: [3.3347033251071585e-11, 1.3805888615485429e-11, -2.101100619444213e-10, -2.1303312434418908e-10, -1.570795999973079, 2.635447000334875, 0.471239000454527, -1.623156000008147, 0.10471999999795736, 1.7453290000050132, 5.5152549194303885e-12, 3.685773908301824e-12, 4.4626177753137565e-12]
velocity: [1.0684933739090674e-09, 5.074304083150431e-10, -4.697275387845085e-10, -1.252721753347236e-09, 1.9364202301346148e-09, -3.4244474031108535e-09, -1.2477784165134172e-09, -6.335618465953209e-10, -2.7309471934505656e-10, -9.2453689598847e-11, 2.6047202386604925e-11, -3.257740964975566e-11, -2.341604413124986e-11]
effort: [-0.37641244868287516, -0.15227354873046425, 2.1016325370158486, 2.1762661194811432, -0.3707401664382405, -3.232358910127861, -4.494008894728028, 0.11471666259032147, 0.03324193022154564, -0.045960477998084705, -0.05644123694732135, -0.035305422179750086, -0.04331829630470871]
---
header: 
  seq: 3463
  stamp: 
    secs: 34
    nsecs: 645000000
  frame_id: ''
name: [FR_FLIPPER, FL_FLIPPER, BR_FLIPPER, BL_FLIPPER, SHOULDER, ARM, FOREARM, WRIST1, WRIST2,
  HAND, FINGER1, FINGER2, FINGER3]
position: [2.924575815896335e-11, 1.2552263373676043e-11, -2.070532613635337e-10, -2.0769995575861677e-10, -1.570795999982684, 2.635447000347726, 0.47123900045875894, -1.62315600000465, 0.1047199999996033, 1.7453290000056525, 5.400263569654837e-12, 3.824329741775044e-12, 4.564223998748671e-12]
velocity: [-3.4739614946424295e-10, 4.0833617868347876e-11, -1.3866252531426473e-10, 3.3624898160864586e-10, -1.3601251368280194e-09, 6.451321491911052e-10, 3.481257204648986e-10, 4.927291783804183e-10, 1.9998291879938203e-10, 7.544572325565806e-11, -1.4475259076197059e-11, 1.7189175043095334e-11, 1.642180030198998e-11]
effort: [-0.2987317338696477, -0.14214240204512266, 2.114968481508238, 2.0967069104343206, -0.1332012882393344, -3.4132580032945676, -4.5800777576559515, 0.03219783715864493, 0.0004275260889311167, -0.05767758490184746, -0.053705007748812504, -0.03857665124008065, -0.04626835737737229]
---
header: 
  seq: 3464
  stamp: 
    secs: 34
    nsecs: 655000000
  frame_id: ''
name: [FR_FLIPPER, FL_FLIPPER, BR_FLIPPER, BL_FLIPPER, SHOULDER, ARM, FOREARM, WRIST1, WRIST2,
  HAND, FINGER1, FINGER2, FINGER3]
position: [2.6520068476323932e-11, 8.937990755505942e-12, -2.0375708347127042e-10, -2.021308765981153e-10, -1.5707959999794734, 2.635447000359883, 0.47123900046323475, -1.6231560000063365, 0.1047199999989029, 1.7453290000053074, 5.406258773987813e-12, 3.834432771299133e-12, 4.537273334825894e-12]
velocity: [-1.4064840873266358e-10, -2.5821024802044275e-10, 1.0808823569310594e-10, 4.721738702665945e-10, 4.121774493050168e-10, 6.483387624655238e-10, 3.084788734650762e-10, -1.815033380738934e-10, -7.381650010833214e-11, -3.152885157161676e-11, 3.0155931090599463e-12, -2.168509506327382e-12, -4.035735617131932e-12]
effort: [-0.278391962543878, -0.0997014518542475, 2.0597237704555544, 2.0297805798583175, -0.2143810804545852, -3.542092286185386, -4.618437147086469, 0.06465094042268346, 0.011347742939654936, -0.05337319070437189, -0.05430411207402836, -0.038026385281354255, -0.045238598488120924]
---
header: 
  seq: 3465
  stamp: 
    secs: 34
    nsecs: 665000000
  frame_id: ''
name: [FR_FLIPPER, FL_FLIPPER, BR_FLIPPER, BL_FLIPPER, SHOULDER, ARM, FOREARM, WRIST1, WRIST2,
  HAND, FINGER1, FINGER2, FINGER3]
position: [3.2743824145142764e-11, 1.4620849127754135e-11, -2.0981002167835136e-10, -2.1046384665428244e-10, -1.5707959999779484, 2.6354470003363555, 0.4712390004543525, -1.6231560000061962, 0.10471999999887066, 1.7453290000053885, 5.4623527923070014e-12, 3.7351233217464125e-12, 4.504938089233689e-12]
velocity: [-2.8165016746480944e-10, -1.5752897006927277e-10, 4.2727063394736175e-10, 3.574566947608022e-10, -3.9647479592098836e-10, 1.4116030180711703e-09, 1.6831469489506848e-10, 1.3514667783452583e-10, 7.913892903074883e-11, 2.68391928694945e-11, -7.395320151330232e-12, 7.988702338019696e-12, 2.509065006123808e-12]
effort: [-0.2370362594126818, -0.07362713381247032, 1.994844103820934, 1.9855599932377843, -0.1656089981589739, -3.7399881718532866, -4.649178975431257, 0.04985197859118421, 0.003057751106119857, -0.055758643116824054, -0.0533230844885651, -0.03914320899001005, -0.04562366204957041]
---
header: 
  seq: 3466
  stamp: 
    secs: 34
    nsecs: 675000000
  frame_id: ''
name: [FR_FLIPPER, FL_FLIPPER, BR_FLIPPER, BL_FLIPPER, SHOULDER, ARM, FOREARM, WRIST1, WRIST2,
  HAND, FINGER1, FINGER2, FINGER3]
position: [2.782008369332789e-11, 1.130467833058979e-11, -2.0578895705558597e-10, -2.0540452054084585e-10, -1.5707959999833856, 2.635447000352879, 0.47123900046069567, -1.6231560000046539, 0.10471999999954312, 1.7453290000055797, 5.3813897782362095e-12, 3.855360475313318e-12, 4.581945933779248e-12]
velocity: [-1.532986886768054e-10, 3.499987134267388e-11, -1.0271566516736846e-10, 9.681404209173042e-11, -6.923748863371525e-10, 6.370104680300174e-11, 2.0457137304489162e-10, 2.3383080354815526e-10, 7.671940781491554e-11, 2.515059903133774e-11, -7.191817823639903e-12, 8.83962597225376e-12, 9.97147729265997e-12]
effort: [-0.31210807375456895, -0.14970850420660556, 2.1083712451290615, 2.0949578545051666, -0.15127584245223918, -3.3699221652629547, -4.5639788905660295, 0.03857991870530652, 0.0036217094006774364, -0.056400200150012215, -0.0539043397354117, -0.038235198631545, -0.046046538696504116]
---
header: 
  seq: 3467
  stamp: 
    secs: 34
    nsecs: 685000000
  frame_id: ''
name: [FR_FLIPPER, FL_FLIPPER, BR_FLIPPER, BL_FLIPPER, SHOULDER, ARM, FOREARM, WRIST1, WRIST2,
  HAND, FINGER1, FINGER2, FINGER3]
position: [2.8066720171929238e-11, 1.1948323081802104e-11, -2.080219620691215e-10, -2.07330036602546e-10, -1.5707959999807206, 2.6354470003475656, 0.47123900045927997, -1.6231560000056846, 0.10471999999898038, 1.7453290000053459, 5.411365799901089e-12, 3.8122283108066305e-12, 4.556591215454371e-12]
velocity: [1.5381684422676283e-10, 4.0245779951836137e-10, -6.72997704686148e-10, -4.822625788513442e-10, -5.403950449986907e-11, -1.788757166825215e-09, -5.112532967448143e-10, 5.2486818535348555e-11, -7.68905850273759e-13, 3.459388638351398e-12, 2.316304959495994e-12, -4.975654299793005e-12, 9.683652430259457e-13]
effort: [-0.293578349273943, -0.15329225632330498, 2.125191539961792, 2.102282832901428, -0.16073012661481065, -3.3499146846085313, -4.555828468943, 0.04129194272557485, 0.004646539836715259, -0.05614258513143907, -0.054045532488299575, -0.03805603927433297, -0.0459163109413816]
---
header: 
  seq: 3468
  stamp: 
    secs: 34
    nsecs: 695000000
  frame_id: ''
name: [FR_FLIPPER, FL_FLIPPER, BR_FLIPPER, BL_FLIPPER, SHOULDER, ARM, FOREARM, WRIST1, WRIST2,
  HAND, FINGER1, FINGER2, FINGER3]
position: [2.9853712926221354e-11, 1.3231180691006261e-11, -2.073195629927193e-10, -2.0871858917841796e-10, -1.5707959999763907, 2.6354470003414407, 0.4712390004557723, -1.6231560000067802, 0.104719999998756, 1.7453290000053576, 5.474787290182803e-12, 3.731681630370076e-12, 4.482504645242356e-12]
velocity: [-4.68102333815383e-10, -3.183655895360942e-10, 7.356611459851465e-10, 8.897603537936574e-10, -8.318528510907113e-10, 2.2465251814077834e-09, 5.943403894787018e-10, 3.0712297928422915e-10, 1.75032728605991e-10, 7.052046928774435e-11, -1.151573461531405e-11, 1.447761754927269e-11, 6.808505957269469e-12]
effort: [-0.23385730522699488, -0.08764717709081893, 2.006658539389185, 1.9843187147391, -0.10959733157214328, -3.700307193270573, -4.652234697597455, 0.02613451905796634, -0.007306045641804701, -0.06051116202528013, -0.052962061969606546, -0.03957001283918435, -0.04624673064724448]
---
header: 
  seq: 3469
  stamp: 
    secs: 34
    nsecs: 705000000
  frame_id: ''
name: [FR_FLIPPER, FL_FLIPPER, BR_FLIPPER, BL_FLIPPER, SHOULDER, ARM, FOREARM, WRIST1, WRIST2,
  HAND, FINGER1, FINGER2, FINGER3]
position: [2.7125204968454778e-11, 1.0122427201997297e-11, -2.0501948966647476e-10, -2.0366746993332604e-10, -1.5707959999821595, 2.635447000357516, 0.4712390004618924, -1.623156000005189, 0.10471999999938422, 1.745329000005511, 5.38549760342732e-12, 3.855193941859622e-12, 4.564695843534135e-12]
velocity: [-2.796405229419254e-10, -5.196657442232149e-10, 4.6199691419653865e-10, 5.10528463271972e-10, 2.3631276222509995e-10, 1.963479390473501e-09, 6.828162774267774e-10, -1.6689281286408696e-10, -7.244697604553314e-11, -4.0988008693792226e-11, -2.071587118071894e-12, 4.81624794343301e-12, -9.49493762665745e-13]
effort: [-0.27057327933247555, -0.08034536091924485, 2.0269962787553433, 2.036129826383695, -0.2597311091890103, -3.6107540158964198, -4.626004958429703, 0.08449102504034772, 0.019682297958587096, -0.049478672896543674, -0.05454062283090707, -0.03779838397658846, -0.04473003436310617]
---
header: 
  seq: 3470
  stamp: 
    secs: 34
    nsecs: 715000000
  frame_id: ''
name: [FR_FLIPPER, FL_FLIPPER, BR_FLIPPER, BL_FLIPPER, SHOULDER, ARM, FOREARM, WRIST1, WRIST2,
  HAND, FINGER1, FINGER2, FINGER3]
position: [2.8905136313997493e-11, 1.0510610719445534e-11, -2.064263795705304e-10, -2.0682498368031904e-10, -1.5707959999781809, 2.6354470003524026, 0.4712390004605699, -1.6231560000067455, 0.10471999999860014, 1.745329000005185, 5.427047700123921e-12, 3.7995717683259045e-12, 4.5257131375819865e-12]
velocity: [9.409169869751076e-11, -1.2093449003451022e-10, 1.615376734684909e-10, -2.6114929021222943e-10, 8.471954500269237e-10, -6.734603780049003e-12, -6.083093800574846e-11, -3.250523096082729e-10, -1.338689627161466e-10, -5.352508330500634e-11, 7.796595049019176e-12, -9.419767785147985e-12, -1.0063501644153018e-11]
effort: [-0.2806610794144515, -0.08913123956060552, 2.034041986071621, 2.0627929026417218, -0.26313741535830276, -3.5744833125133018, -4.612840988288591, 0.08439538999533787, 0.01954204112219184, -0.04975924253304211, -0.054634559383816915, -0.03760992378540043, -0.04464057119902831]
---
header: 
  seq: 3471
  stamp: 
    secs: 34
    nsecs: 725000000
  frame_id: ''
name: [FR_FLIPPER, FL_FLIPPER, BR_FLIPPER, BL_FLIPPER, SHOULDER, ARM, FOREARM, WRIST1, WRIST2,
  HAND, FINGER1, FINGER2, FINGER3]
position: [3.270184914961477e-11, 1.4451495338949072e-11, -2.0957523108426634e-10, -2.1220981157206442e-10, -1.5707959999769894, 2.6354470003370176, 0.47123900045416134, -1.6231560000065004, 0.10471999999879464, 1.7453290000053705, 5.472511332982323e-12, 3.724576203012474e-12, 4.4904427398684244e-12]
velocity: [-5.742620804145249e-10, -3.4307167890012536e-10, 7.520555764602101e-10, 8.324286448551641e-10, -5.921636263018131e-10, 2.3190405407393926e-09, 4.995745696447077e-10, 2.0428929610812236e-10, 1.2603503834886666e-10, 4.703193872067797e-11, -1.0060123096456305e-11, 1.250130125259373e-11, 4.2151886474025745e-12]
effort: [-0.23162552662974734, -0.07079896793422699, 1.9890580634415278, 1.9850052197212058, -0.15897365821228, -3.7559296617987554, -4.65565629269283, 0.04702746661105918, 0.0013951616448246188, -0.056554511803425626, -0.05326451481313326, -0.039245888124219634, -0.04567870708757183]
---
header: 
  seq: 3472
  stamp: 
    secs: 34
    nsecs: 735000000
  frame_id: ''
name: [FR_FLIPPER, FL_FLIPPER, BR_FLIPPER, BL_FLIPPER, SHOULDER, ARM, FOREARM, WRIST1, WRIST2,
  HAND, FINGER1, FINGER2, FINGER3]
position: [2.6730494228667523e-11, 1.0564906913722305e-11, -2.0581715303412407e-10, -2.0518065436785082e-10, -1.570795999983918, 2.6354470003562684, 0.471239000462063, -1.623156000004443, 0.10471999999971433, 1.745329000005663, 5.374978240268999e-12, 3.86868315160882e-12, 4.584804758067658e-12]
velocity: [-1.5176767880973892e-10, 7.608799615084895e-11, -2.623638053724949e-10, 5.1455679753503056e-11, -8.568609423818085e-10, -6.502283372305159e-11, 2.33788305281619e-10, 2.9687894445119045e-10, 1.0029710232289207e-10, 3.515766065748118e-11, -8.594072964080165e-12, 1.0134159954317525e-11, 1.192928470198689e-11]
effort: [-0.3118419645956133, -0.15212382598408805, 2.121989896996039, 2.116954418484726, -0.1444161401965003, -3.363671348624911, -4.5649881111792245, 0.035317228763604935, 0.0020242433817991134, -0.057220995507847906, -0.053865696859857884, -0.0382591798048924, -0.046097365941263395]
---
header: 
  seq: 3473
  stamp: 
    secs: 34
    nsecs: 745000000
  frame_id: ''
name: [FR_FLIPPER, FL_FLIPPER, BR_FLIPPER, BL_FLIPPER, SHOULDER, ARM, FOREARM, WRIST1, WRIST2,
  HAND, FINGER1, FINGER2, FINGER3]
position: [3.2468107412711444e-11, 1.2973406528747622e-11, -2.091923482312394e-10, -2.1188863706146646e-10, -1.5707959999729544, 2.6354470003380643, 0.4712390004560201, -1.6231560000081757, 0.10471999999804808, 1.7453290000050694, 5.515560230762158e-12, 3.689992755795399e-12, 4.456816860010089e-12]
velocity: [1.11377304462408e-09, 6.530296735675547e-10, -8.527800627478047e-10, -1.4390538557780488e-09, 1.5416020886138473e-09, -3.8725609345755466e-09, -1.291294061220814e-09, -4.6505690269826377e-10, -2.0238479434621109e-10, -6.016719867319563e-11, 2.3502957030480394e-11, -3.008276447792064e-11, -1.9046264861765283e-11]
effort: [-0.3786825719207437, -0.1709525709159366, 2.1434538048104956, 2.1957148243852034, -0.3149809113844663, -3.1754155937593382, -4.491491628709247, 0.09092086864790312, 0.02309564514244247, -0.050617611366857315, -0.0560999665812498, -0.03567844001709359, -0.04394317938408036]
---
header: 
  seq: 3474
  stamp: 
    secs: 34
    nsecs: 755000000
  frame_id: ''
name: [FR_FLIPPER, FL_FLIPPER, BR_FLIPPER, BL_FLIPPER, SHOULDER, ARM, FOREARM, WRIST1, WRIST2,
  HAND, FINGER1, FINGER2, FINGER3]
position: [2.9470639795713134e-11, 1.2305902065586073e-11, -2.0568555897122062e-10, -2.079290735900949e-10, -1.5707959999811576, 2.6354470003484702, 0.4712390004583236, -1.6231560000052934, 0.10471999999931098, 1.7453290000055166, 5.4097282209397666e-12, 3.81158993256747e-12, 4.545891441054546e-12]
velocity: [-6.924813361796455e-10, -6.326120541760493e-10, 9.672166474041576e-10, 8.690462406620294e-10, -1.798729593659183e-10, 2.9416300710144407e-09, 8.370601563198103e-10, -1.5227718673067607e-11, 7.543314659845278e-12, -1.1152690157057814e-11, -7.648635506943572e-12, 1.228260573401979e-11, 2.927137551569582e-12]
effort: [-0.255432513025286, -0.06647288937680938, 1.995203865381228, 2.0319823599687314, -0.2524666903901719, -3.674805611863341, -4.643906678105772, 0.08328008949971948, 0.018763676597121325, -0.049579913149434524, -0.0543906587074932, -0.038128124817394755, -0.04486081131832119]
---
header: 
  seq: 3475
  stamp: 
    secs: 34
    nsecs: 765000000
  frame_id: ''
name: [FR_FLIPPER, FL_FLIPPER, BR_FLIPPER, BL_FLIPPER, SHOULDER, ARM, FOREARM, WRIST1, WRIST2,
  HAND, FINGER1, FINGER2, FINGER3]
position: [2.7882315488565738e-11, 1.097993668642411e-11, -2.0577289763616669e-10, -2.0646438671136774e-10, -1.5707959999820484, 2.6354470003525985, 0.47123900046111084, -1.623156000005237, 0.10471999999925113, 1.7453290000054542, 5.393102631146007e-12, 3.841815754412892e-12, 4.570531453307324e-12]
velocity: [2.5821356435860507e-10, 3.382928370849351e-10, -5.433823187995216e-10, -2.7833182779414117e-10, -3.1940241052851e-10, -1.450213682241224e-09, -2.9987150945312544e-10, 1.3139517321888484e-10, 2.609060369001626e-11, 1.0704550616798005e-11, -1.1389639771453536e-12, -5.665286836367394e-13, 4.9613443215891284e-12]
effort: [-0.3205281073380195, -0.15688847806594902, 2.111192040602008, 2.107122052381774, -0.15647652080582833, -3.3396789404124196, -4.553245840858733, 0.039796028752857995, 0.004282024670907353, -0.05623643996315464, -0.05398339437898855, -0.03805925873755456, -0.04595507839387134]
---
header: 
  seq: 3476
  stamp: 
    secs: 34
    nsecs: 775000000
  frame_id: ''
name: [FR_FLIPPER, FL_FLIPPER, BR_FLIPPER, BL_FLIPPER, SHOULDER, ARM, FOREARM, WRIST1, WRIST2,
  HAND, FINGER1, FINGER2, FINGER3]
position: [3.580854146187362e-11, 1.66863534708378e-11, -2.1304526784220182e-10, -2.1535674133744964e-10, -1.5707959999747474, 2.635447000323724, 0.47123900045103867, -1.62315600000723, 0.10471999999825693, 1.745329000005169, 5.517308832025947e-12, 3.665956427312267e-12, 4.478216408809743e-12]
velocity: [1.4014311866707307e-09, 1.1415299261503541e-09, -1.5276700506480548e-09, -1.6520348292706967e-09, 8.269210618563245e-10, -5.417353487872487e-09, -1.8194763808010186e-09, -1.585067521048927e-10, -9.314831890571982e-11, -1.3970614086321373e-11, 1.892822506444229e-11, -2.716492900708269e-11, -1.0940868203003616e-11]
effort: [-0.4189676984733909, -0.2239529414035388, 2.210496632378163, 2.2298505343929214, -0.262185494455652, -2.9842430589875075, -4.429159376871968, 0.06820792065916935, 0.01680155741638684, -0.053151056879212406, -0.05582316928377223, -0.03570111012499032, -0.04461048031971193]
---
header: 
  seq: 3477
  stamp: 
    secs: 34
    nsecs: 785000000
  frame_id: ''
name: [FR_FLIPPER, FL_FLIPPER, BR_FLIPPER, BL_FLIPPER, SHOULDER, ARM, FOREARM, WRIST1, WRIST2,
  HAND, FINGER1, FINGER2, FINGER3]
position: [2.7814138470715066e-11, 1.0355716501334045e-11, -2.0440197353709805e-10, -2.0510544488944876e-10, -1.5707959999798409, 2.6354470003560055, 0.4712390004605928, -1.6231560000058594, 0.10471999999921565, 1.7453290000054817, 5.415723425272744e-12, 3.8198610941009284e-12, 4.5288495176265526e-12]
velocity: [-1.035557430606454e-09, -8.649227635740287e-10, 9.222085857860635e-10, 1.0625922753825413e-09, -5.09950736656539e-10, 3.93814900697771e-09, 1.3713575628116611e-09, 1.0875332326198035e-10, 8.226322481342617e-11, 2.353788504447439e-11, -1.0636763590875869e-11, 1.839736251816921e-11, 6.6577645784581246e-12]
effort: [-0.2545298505418625, -0.08037115920844833, 2.038231152909438, 2.0473080901093703, -0.20152566199493605, -3.6310520132315434, -4.647522196519163, 0.06142469176951221, 0.009204278442951496, -0.054045940428457354, -0.05410930194089537, -0.03849920927582679, -0.04544783136282001]
---
header: 
  seq: 3478
  stamp: 
    secs: 34
    nsecs: 795000000
  frame_id: ''
name: [FR_FLIPPER, FL_FLIPPER, BR_FLIPPER, BL_FLIPPER, SHOULDER, ARM, FOREARM, WRIST1, WRIST2,
  HAND, FINGER1, FINGER2, FINGER3]
position: [2.6728484985201473e-11, 9.386773151300043e-12, -2.0361399719059928e-10, -2.043443730198602e-10, -1.5707959999804693, 2.6354470003585453, 0.471239000462736, -1.623156000005964, 0.10471999999900984, 1.745329000005342, 5.398681501844746e-12, 3.843370066647364e-12, 4.551845012024099e-12]
velocity: [-3.587636617446662e-11, -2.3154099250658615e-10, 3.287495722336738e-10, 1.1314212851580886e-10, 6.720127434161498e-10, 4.626231687632206e-10, 1.5309134246063095e-10, -2.9424931741383735e-10, -1.337528748844796e-10, -6.025694437500063e-11, 4.645941762005741e-12, -5.0283804289650506e-12, -6.614092007850442e-12]
effort: [-0.2745552717124955, -0.08040317647571638, 2.011139440029219, 2.039735692910405, -0.2688036111066008, -3.6063159497115653, -4.6212375716817915, 0.08801915557441672, 0.02121547158733355, -0.0487929440385657, -0.05462172151472369, -0.037695711909872386, -0.04462702531867327]
---
header: 
  seq: 3479
  stamp: 
    secs: 34
    nsecs: 805000000
  frame_id: ''
name: [FR_FLIPPER, FL_FLIPPER, BR_FLIPPER, BL_FLIPPER, SHOULDER, ARM, FOREARM, WRIST1, WRIST2,
  HAND, FINGER1, FINGER2, FINGER3]
position: [3.246881442094812e-11, 1.4177746325040597e-11, -2.0860359782864235e-10, -2.101814286850634e-10, -1.5707959999773262, 2.635447000337979, 0.4712390004547126, -1.6231560000064844, 0.10471999999875203, 1.7453290000053323, 5.464850794112406e-12, 3.734318410053561e-12, 4.498887373749481e-12]
velocity: [-3.6438125701055775e-10, -2.678144453050701e-10, 6.404723993717887e-10, 7.022962548504768e-10, -2.888416212833323e-10, 1.798876548185135e-09, 3.0326745575638886e-10, 9.144619569097233e-11, 6.914292764958563e-11, 2.361269247659651e-11, -6.780419947175456e-12, 7.821556269580913e-12, 9.821638338765048e-13]
effort: [-0.23084636885108145, -0.06708632687512484, 1.9720961709237694, 1.9732087522269763, -0.16641623757332383, -3.765339608517657, -4.657686507315057, 0.05049596855211917, 0.0029878142384578976, -0.05578240429839665, -0.05330880694947611, -0.03921587646211475, -0.04561669869270821]
---
header: 
  seq: 3480
  stamp: 
    secs: 34
    nsecs: 815000000
  frame_id: ''
name: [FR_FLIPPER, FL_FLIPPER, BR_FLIPPER, BL_FLIPPER, SHOULDER, ARM, FOREARM, WRIST1, WRIST2,
  HAND, FINGER1, FINGER2, FINGER3]
position: [2.7374470095223313e-11, 1.078819184593266e-11, -2.063095373792262e-10, -2.0634863913057688e-10, -1.570795999983147, 2.635447000354664, 0.47123900046146294, -1.6231560000047482, 0.10471999999954751, 1.745329000005589, 5.382305712231523e-12, 3.856026609128092e-12, 4.576790335608645e-12]
velocity: [-1.5300522187645687e-10, 6.835193614997915e-11, -3.330503540221698e-10, -1.0593192443819809e-10, -8.094899681011418e-10, -2.8137636150791153e-11, 2.081532386580438e-10, 2.8501107601925377e-10, 1.0021638095545282e-10, 3.616629660315888e-11, -7.970780903261322e-12, 9.585551076567308e-12, 1.1069432589032266e-11]
effort: [-0.30938840193537875, -0.14861265398496085, 2.1193425341316017, 2.112407947498898, -0.14578509974910925, -3.37697417447938, -4.5679376236495655, 0.03634386108274546, 0.002458468754172488, -0.056940005290865736, -0.05385142793956243, -0.03830174455693867, -0.04609582838529387]
---
header: 
  seq: 3481
  stamp: 
    secs: 34
    nsecs: 825000000
  frame_id: ''
name: [FR_FLIPPER, FL_FLIPPER, BR_FLIPPER, BL_FLIPPER, SHOULDER, ARM, FOREARM, WRIST1, WRIST2,
  HAND, FINGER1, FINGER2, FINGER3]
position: [2.923866931989899e-11, 1.1922536959432795e-11, -2.0764028972782012e-10, -2.08987382304196e-10, -1.5707959999808039, 2.6354470003476607, 0.47123900045943345, -1.6231560000056398, 0.10471999999901284, 1.7453290000053638, 5.411643355657245e-12, 3.8133107782556376e-12, 4.5571116324971635e-12]
velocity: [4.300099784363948e-10, 4.4477811353295524e-10, -5.948514158316293e-10, -5.505984024844464e-10, -1.0101853133261932e-10, -1.899345992368441e-09, -5.719597387267676e-10, 7.014806549211355e-11, 3.5289034425147764e-12, 4.324875435541968e-12, 1.900992191245158e-12, -4.5977502084190855e-12, 1.6968557196751973e-12]
effort: [-0.3167439790113802, -0.15235943146817202, 2.122583537255574, 2.1185491904646607, -0.15841863367586803, -3.356703802582516, -4.557430500081813, 0.04046934697753527, 0.004173129155392023, -0.05632239325301058, -0.05401317077047237, -0.03810049736682952, -0.04593760799053938]
---
header: 
  seq: 3482
  stamp: 
    secs: 34
    nsecs: 835000000
  frame_id: ''
name: [FR_FLIPPER, FL_FLIPPER, BR_FLIPPER, BL_FLIPPER, SHOULDER, ARM, FOREARM, WRIST1, WRIST2,
  HAND, FINGER1, FINGER2, FINGER3]
position: [3.190831225543395e-11, 1.338417408586895e-11, -2.0836320190932562e-10, -2.0933952195410083e-10, -1.5707959999762882, 2.635447000340833, 0.4712390004556013, -1.6231560000068055, 0.10471999999875271, 1.7453290000053574, 5.475980779934274e-12, 3.727657071905808e-12, 4.481498505626288e-12]
velocity: [-6.182439001708949e-10, -3.2639247396665316e-10, 5.911223691905583e-10, 1.0606923217287518e-09, -9.359495282414922e-10, 2.355938510836972e-09, 6.376958851668045e-10, 3.473964730852791e-10, 1.944034419183499e-10, 7.864063688519299e-11, -1.2545632792298661e-11, 1.584562044638522e-11, 7.950447946671546e-12]
effort: [-0.23056190158422252, -0.08658663169774328, 2.0172890685116545, 1.9838081562037424, -0.09835171919105878, -3.712198855818341, -4.658105900635042, 0.02165908925543468, -0.009567313825838933, -0.06150289597999345, -0.05286183563947539, -0.039717625117684716, -0.04636611883380792]
---
header: 
  seq: 3483
  stamp: 
    secs: 34
    nsecs: 845000000
  frame_id: ''
name: [FR_FLIPPER, FL_FLIPPER, BR_FLIPPER, BL_FLIPPER, SHOULDER, ARM, FOREARM, WRIST1, WRIST2,
  HAND, FINGER1, FINGER2, FINGER3]
position: [2.6894312406440524e-11, 1.0168898600775024e-11, -2.0453515877510989e-10, -2.0434275679968167e-10, -1.5707959999825711, 2.6354470003575883, 0.47123900046193234, -1.623156000005022, 0.10471999999946269, 1.7453290000055441, 5.381334267084978e-12, 3.85902421129458e-12, 4.568602440802036e-12]
velocity: [-5.037198425917275e-10, -5.652672932332544e-10, 6.148411012651964e-10, 4.42335283427761e-10, 2.2425742041718996e-10, 2.1519831942807405e-09, 7.291482761913869e-10, -1.663576171359718e-10, -7.176293369841043e-11, -4.1330494896947186e-11, -2.380493817357768e-12, 5.720427319692487e-12, -7.783269844724885e-13]
effort: [-0.26871052297217923, -0.07731515590697977, 2.022148034249201, 2.049163489362976, -0.25955050952925685, -3.6235249385861192, -4.628928167108538, 0.08469085962177872, 0.019646702016377537, -0.04944216000437469, -0.05452165642717026, -0.03784855069377411, -0.04473708288535533]
---
header: 
  seq: 3484
  stamp: 
    secs: 34
    nsecs: 855000000
  frame_id: ''
name: [FR_FLIPPER, FL_FLIPPER, BR_FLIPPER, BL_FLIPPER, SHOULDER, ARM, FOREARM, WRIST1, WRIST2,
  HAND, FINGER1, FINGER2, FINGER3]
position: [3.197074289335022e-11, 1.3772928218920566e-11, -2.0887149659604837e-10, -2.124924756551766e-10, -1.5707959999731231, 2.635447000335088, 0.47123900045462946, -1.623156000008126, 0.10471999999797195, 1.7453290000050208, 5.515032874825463e-12, 3.68713393150699e-12, 4.4627773698735455e-12]
velocity: [1.0887118130089702e-09, 5.392420180572093e-10, -5.930045712135821e-10, -1.2760025833408496e-09, 1.940330431045589e-09, -3.554812390045217e-09, -1.2790954031755613e-09, -6.322499449759901e-10, -2.7362718896507107e-10, -9.21587332716979e-11, 2.623339035673861e-11, -3.307960185489945e-11, -2.349746156178276e-11]
effort: [-0.37781639587860794, -0.15561247128030653, 2.1046601357952532, 2.1710301626924497, -0.36829569568263587, -3.220387898233476, -4.491398447129662, 0.11343026794653156, 0.03274079907088785, -0.0462300175257035, -0.056436536694248425, -0.035282121308890024, -0.043335960619822304]
---
header: 
  seq: 3485
  stamp: 
    secs: 34
    nsecs: 865000000
  frame_id: ''
name: [FR_FLIPPER, FL_FLIPPER, BR_FLIPPER, BL_FLIPPER, SHOULDER, ARM, FOREARM, WRIST1, WRIST2,
  HAND, FINGER1, FINGER2, FINGER3]
position: [2.9334096783573133e-11, 1.277025588140163e-11, -2.0667795957735743e-10, -2.0774946324873813e-10, -1.5707959999828758, 2.63544700034697, 0.47123900045851036, -1.6231560000045528, 0.10471999999963705, 1.7453290000056707, 5.3996529469912925e-12, 3.823358296628498e-12, 4.565126054956179e-12]
velocity: [-2.2124056721053352e-10, 2.6808939282819883e-11, -9.28323478387118e-11, 2.2767363638974145e-10, -1.3162950567892124e-09, 6.763153626938784e-10, 3.437424131329484e-10, 4.736939967317793e-10, 1.910813371144599e-10, 7.131468301673638e-11, -1.4154702574407715e-11, 1.688606834096585e-11, 1.60351178768219e-11]
effort: [-0.2975844890624413, -0.14041040576293864, 2.0980017100965793, 2.102158445116864, -0.13714288121490062, -3.418507800238573, -4.580664321337667, 0.03389034850423594, 0.0011717958144488619, -0.057340006438639145, -0.05373484560203729, -0.03855994152674994, -0.0462312833375076]
---
header: 
  seq: 3486
  stamp: 
    secs: 34
    nsecs: 875000000
  frame_id: ''
name: [FR_FLIPPER, FL_FLIPPER, BR_FLIPPER, BL_FLIPPER, SHOULDER, ARM, FOREARM, WRIST1, WRIST2,
  HAND, FINGER1, FINGER2, FINGER3]
position: [2.8556448763809864e-11, 1.1337831064620054e-11, -2.0673102715373234e-10, -2.0774161351658912e-10, -1.5707959999820134, 2.6354470003512755, 0.4712390004604515, -1.62315600000526, 0.10471999999919933, 1.7453290000054247, 5.39321365344847e-12, 3.837791195948624e-12, 4.570892275790326e-12]
velocity: [2.2061814258834354e-10, 2.37267336714731e-10, -5.683999590719743e-10, -4.1602922234300635e-10, -1.190791913702066e-10, -1.1137913082487058e-09, -2.429189422620021e-10, 4.4662438879664165e-11, -8.713118456608188e-12, -5.248043588921728e-12, 1.1332254750086162e-13, -1.4492511253383156e-12, 2.781878916089055e-12]
effort: [-0.3154036696452228, -0.15142952190065387, 2.12362227132456, 2.1190969618590767, -0.1593270317313919, -3.3583202612537564, -4.560808846307726, 0.04106369031495634, 0.004501439957906596, -0.05618238002038098, -0.054007861719405546, -0.03808865789774715, -0.04592945900186682]
---
header: 
  seq: 3487
  stamp: 
    secs: 34
    nsecs: 885000000
  frame_id: ''
name: [FR_FLIPPER, FL_FLIPPER, BR_FLIPPER, BL_FLIPPER, SHOULDER, ARM, FOREARM, WRIST1, WRIST2,
  HAND, FINGER1, FINGER2, FINGER3]
position: [3.5339268403961066e-11, 1.6124571946760094e-11, -2.1359285011252757e-10, -2.1486394673024545e-10, -1.5707959999741972, 2.635447000325786, 0.4712390004517813, -1.6231560000074658, 0.10471999999819082, 1.7453290000051442, 5.521083590309672e-12, 3.6653735602243395e-12, 4.4715967040254165e-12]
velocity: [1.3212499706922718e-09, 1.097307977658656e-09, -1.4352172875213622e-09, -1.5477374999785166e-09, 8.335710215904236e-10, -5.260284993996887e-09, -1.7294792356400191e-09, -1.5911282976475146e-10, -8.79180951249099e-11, -1.0454922369834712e-11, 1.9122213366436034e-11, -2.683722760030582e-11, -1.1089210737435116e-11]
effort: [-0.4176900944638795, -0.22310957751164073, 2.210833446495877, 2.232194115162203, -0.26319583987313566, -2.9867201296699895, -4.43156527368025, 0.06849990265533944, 0.0167970168921468, -0.05320714801723079, -0.05584369875683368, -0.03569364364323266, -0.044599263611072026]
---
header: 
  seq: 3488
  stamp: 
    secs: 34
    nsecs: 895000000
  frame_id: ''
name: [FR_FLIPPER, FL_FLIPPER, BR_FLIPPER, BL_FLIPPER, SHOULDER, ARM, FOREARM, WRIST1, WRIST2,
  HAND, FINGER1, FINGER2, FINGER3]
position: [2.7487462067772583e-11, 1.0102678676265908e-11, -2.0472714268218034e-10, -2.0410825319391169e-10, -1.5707959999797263, 2.635447000356865, 0.47123900046100914, -1.6231560000058987, 0.10471999999922652, 1.7453290000054922, 5.417000181751064e-12, 3.82047171676447e-12, 4.526594377107781e-12]
velocity: [-9.997017732704153e-10, -8.244235883848433e-10, 1.0023325826173729e-09, 1.1530485097036237e-09, -5.517390486478072e-10, 3.7830350288904e-09, 1.3127000194113842e-09, 1.2681158493356672e-10, 8.789251491168855e-11, 2.5660183762324587e-11, -1.1012960573022531e-11, 1.83914982287985e-11, 7.064562294061463e-12]
effort: [-0.2534231676300708, -0.07880336557863882, 2.035694866228676, 2.033336239009062, -0.2028499615018497, -3.636164184937528, -4.649082737001769, 0.061977055660606774, 0.009302319044731848, -0.05400948598662113, -0.05410941426597699, -0.03849278524761774, -0.04542230642830843]
---
header: 
  seq: 3489
  stamp: 
    secs: 34
    nsecs: 905000000
  frame_id: ''
name: [FR_FLIPPER, FL_FLIPPER, BR_FLIPPER, BL_FLIPPER, SHOULDER, ARM, FOREARM, WRIST1, WRIST2,
  HAND, FINGER1, FINGER2, FINGER3]
position: [2.685208717705112e-11, 9.623957880622314e-12, -2.0425318001619092e-10, -2.0587200477359402e-10, -1.5707959999808232, 2.635447000357739, 0.4712390004625943, -1.6231560000057927, 0.10471999999908801, 1.7453290000053818, 5.396127988888111e-12, 3.843231288769288e-12, 4.554183419269717e-12]
velocity: [2.5418704493762622e-11, -1.5377939947920148e-10, 1.72535402173486e-10, -1.6941883732371133e-10, 5.91968250386288e-10, 2.0944330847515645e-10, 8.081009307906645e-11, -2.5691044701627085e-10, -1.2014729936225937e-10, -5.379094118662487e-11, 4.077592885308216e-12, -5.246758012346867e-12, -5.981834969387972e-12]
effort: [-0.27741645876318555, -0.08564905409404122, 2.030019181484467, 2.0580265881687847, -0.2619438919933222, -3.5895912554418, -4.618172759401198, 0.08467814092382162, 0.019746601146747433, -0.049543892489890946, -0.05457766418233392, -0.03767998485851784, -0.04466770443776092]
---
header: 
  seq: 3490
  stamp: 
    secs: 34
    nsecs: 915000000
  frame_id: ''
name: [FR_FLIPPER, FL_FLIPPER, BR_FLIPPER, BL_FLIPPER, SHOULDER, ARM, FOREARM, WRIST1, WRIST2,
  HAND, FINGER1, FINGER2, FINGER3]
position: [3.273489801707691e-11, 1.4507567456384374e-11, -2.097334500083397e-10, -2.1167356138284551e-10, -1.570795999977576, 2.6354470003368147, 0.47123900045437056, -1.623156000006356, 0.10471999999879908, 1.7453290000053558, 5.463990371268321e-12, 3.732097964004309e-12, 4.500032291243626e-12]
velocity: [-3.496251719902027e-10, -2.3822882218657547e-10, 5.212578956600536e-10, 6.795233155528821e-10, -3.335127189510254e-10, 1.7206581846554433e-09, 2.7847815041708073e-10, 1.105205031517611e-10, 7.613251338639646e-11, 2.661771337224836e-11, -7.08519268241823e-12, 7.979205486105154e-12, 1.4295236493304133e-12]
effort: [-0.23355809758002222, -0.07241674721786724, 1.9904049745103445, 1.9907658445768361, -0.15840949048299696, -3.749452887538416, -4.653790985118935, 0.04687650345607901, 0.0015070871049853239, -0.056480401696170385, -0.05325280350879425, -0.03923025518606911, -0.04568482293990158]
---
header: 
  seq: 3491
  stamp: 
    secs: 34
    nsecs: 925000000
  frame_id: ''
name: [FR_FLIPPER, FL_FLIPPER, BR_FLIPPER, BL_FLIPPER, SHOULDER, ARM, FOREARM, WRIST1, WRIST2,
  HAND, FINGER1, FINGER2, FINGER3]
position: [2.565310897734152e-11, 8.36625658074547e-12, -2.0335886772269995e-10, -2.0363136643466312e-10, -1.5707959999803478, 2.6354470003632, 0.471239000464149, -1.6231560000059242, 0.10471999999919938, 1.7453290000054507, 5.3994864135375995e-12, 3.850336716126888e-12, 4.541880760378088e-12]
velocity: [-5.150568718326627e-10, -4.584033847327198e-10, 3.9999586041855776e-10, 4.346252133531716e-10, -1.7124245468864322e-10, 1.7815693386457162e-09, 7.796377046090276e-10, 1.4939090285083126e-11, 1.6500178482832782e-11, 1.9387807051466975e-12, -4.0476679064859194e-12, 8.061145396859471e-12, 3.3811126910885166e-12]
effort: [-0.2758439349300035, -0.0992355074419093, 2.0573344913102996, 2.073271371949298, -0.20711308613312376, -3.5463026594651885, -4.621669148449544, 0.062066468309050465, 0.010358885097730025, -0.05375335869228581, -0.05423505333302001, -0.03812702991124914, -0.04533835376668494]
---
header: 
  seq: 3492
  stamp: 
    secs: 34
    nsecs: 935000000
  frame_id: ''
name: [FR_FLIPPER, FL_FLIPPER, BR_FLIPPER, BL_FLIPPER, SHOULDER, ARM, FOREARM, WRIST1, WRIST2,
  HAND, FINGER1, FINGER2, FINGER3]
position: [2.932526660739954e-11, 1.1643228807305119e-11, -2.0661706059185022e-10, -2.0817991883310963e-10, -1.5707959999794625, 2.635447000348236, 0.4712390004594475, -1.6231560000061516, 0.10471999999882181, 1.7453290000052892, 5.421524340576408e-12, 3.798239500696353e-12, 4.53840437453223e-12]
velocity: [3.112019598394027e-10, 1.0586133556578855e-10, 1.1520076559276959e-10, -3.3327963733491657e-10, 6.994571008881849e-10, -7.739845472067422e-10, -3.9079767326752673e-10, -2.661822841799297e-10, -1.2711939392689835e-10, -5.378184323823822e-11, 6.650863987554976e-12, -9.685184886310134e-12, -8.003081110333148e-12]
effort: [-0.28765128826379327, -0.0942489023556041, 2.0220643583355846, 2.069644040667576, -0.2664761666473597, -3.554597792998583, -4.602410553638493, 0.08586086475472855, 0.02071562442600437, -0.04912940793756705, -0.05465989420283602, -0.037534823460603516, -0.044618479103303035]
---
header: 
  seq: 3493
  stamp: 
    secs: 34
    nsecs: 945000000
  frame_id: ''
name: [FR_FLIPPER, FL_FLIPPER, BR_FLIPPER, BL_FLIPPER, SHOULDER, ARM, FOREARM, WRIST1, WRIST2,
  HAND, FINGER1, FINGER2, FINGER3]
position: [3.3191910591562346e-11, 1.4928642848820173e-11, -2.080841307637929e-10, -2.1172332300995608e-10, -1.5707959999773367, 2.6354470003357924, 0.47123900045325234, -1.6231560000063991, 0.10471999999877743, 1.7453290000053443, 5.468486774518056e-12, 3.728961583959744e-12, 4.497534289438219e-12]
velocity: [-6.381942413669832e-10, -4.962170251527597e-10, 9.6345618092634e-10, 9.703278210358627e-10, -4.145120206051217e-10, 2.9065645578405863e-09, 6.229948300414865e-10, 1.1887932248449195e-10, 9.182649529158376e-11, 2.989764631726437e-11, -9.330987455169874e-12, 1.3033364486715201e-11, 2.7096663419056815e-12]
effort: [-0.22943312501690627, -0.06681061564638743, 1.9698280293705128, 1.9847634217887515, -0.16391503643185978, -3.7730174663903333, -4.656774451561267, 0.04962902913129894, 0.0025998503023882263, -0.055882409348981935, -0.053282182520422466, -0.03928575005345489, -0.04565504224191981]
---
header: 
  seq: 3494
  stamp: 
    secs: 34
    nsecs: 955000000
  frame_id: ''
name: [FR_FLIPPER, FL_FLIPPER, BR_FLIPPER, BL_FLIPPER, SHOULDER, ARM, FOREARM, WRIST1, WRIST2,
  HAND, FINGER1, FINGER2, FINGER3]
position: [2.6751079650055853e-11, 1.0315795960502694e-11, -2.0488694313196276e-10, -2.0459212004674677e-10, -1.5707959999835175, 2.6354470003570705, 0.4712390004621666, -1.6231560000046448, 0.10471999999961513, 1.7453290000056116, 5.37700439728894e-12, 3.8691549963942846e-12, 4.582598189806216e-12]
velocity: [-1.944702553824313e-10, 2.7365421363876494e-11, -2.816111474440616e-10, 1.1967113725469735e-10, -8.101791740982925e-10, 5.120966231922653e-11, 3.169580378889557e-10, 2.803676949667136e-10, 9.793347515975067e-11, 3.5596496571565833e-11, -8.089658863554288e-12, 9.680648512456366e-12, 1.1230623855921378e-11]
effort: [-0.3124725786401883, -0.15202310966574498, 2.109002850291831, 2.105266428927863, -0.14561258573587302, -3.3630418580403205, -4.564215212965459, 0.035955785906591556, 0.00243265816789558, -0.05700287799742401, -0.053875896489595704, -0.03825768519357755, -0.046098418614129555]
---
header: 
  seq: 3495
  stamp: 
    secs: 34
    nsecs: 965000000
  frame_id: ''
name: [FR_FLIPPER, FL_FLIPPER, BR_FLIPPER, BL_FLIPPER, SHOULDER, ARM, FOREARM, WRIST1, WRIST2,
  HAND, FINGER1, FINGER2, FINGER3]
position: [3.4290163590522393e-11, 1.5482849160738943e-11, -2.119729841957782e-10, -2.1439551880792634e-10, -1.5707959999758085, 2.635447000328972, 0.4712390004532359, -1.6231560000069662, 0.10471999999839894, 1.7453290000052126, 5.499239952300172e-12, 3.6941838477133615e-12, 4.4930725806580045e-12]
velocity: [1.5006946315913363e-09, 1.199759854999236e-09, -1.4645246340925265e-09, -2.0109184013664493e-09, 9.541640229852107e-10, -5.827849714554402e-09, -1.899590077490585e-09, -2.125447682128332e-10, -1.2779957807377884e-10, -2.927903110338175e-11, 2.01871010151735e-11, -2.9603861337916495e-11, -1.1914126252817238e-11]
effort: [-0.41757973599431675, -0.2231344685157404, 2.195325329167185, 2.2470121161041967, -0.26022597038562056, -2.9879138184217524, -4.431705931655886, 0.06768997533308661, 0.01662625279218585, -0.05319443063704966, -0.0557880872086066, -0.03573063039642566, -0.04463384811966613]
---
header: 
  seq: 3496
  stamp: 
    secs: 34
    nsecs: 975000000
  frame_id: ''
name: [FR_FLIPPER, FL_FLIPPER, BR_FLIPPER, BL_FLIPPER, SHOULDER, ARM, FOREARM, WRIST1, WRIST2,
  HAND, FINGER1, FINGER2, FINGER3]
position: [2.799115008788461e-11, 1.0341958192605638e-11, -2.0418708791911794e-10, -2.0590968838850312e-10, -1.5707959999792684, 2.635447000355339, 0.4712390004605678, -1.62315600000612, 0.10471999999907164, 1.7453290000054156, 5.41974798373701e-12, 3.812589133289634e-12, 4.524110253090184e-12]
velocity: [-8.88113690378711e-10, -7.592469175650583e-10, 8.287013194890788e-10, 1.1170956866972341e-09, -3.7892725086878403e-10, 3.450064312346485e-09, 1.1628473382067156e-09, 6.98071617939451e-11, 6.243610498458868e-11, 1.6298559296038157e-11, -8.83594405349875e-12, 1.541024412062185e-11, 4.877633399773337e-12]
effort: [-0.2540908366056638, -0.07890391436644092, 2.0368578517464915, 2.0322486687593955, -0.20401538706029984, -3.634726059071368, -4.648643561418694, 0.06268165256247998, 0.009766817525782736, -0.05375717620261555, -0.05410868300173296, -0.03848276163292526, -0.04541837153773717]
---
header: 
  seq: 3497
  stamp: 
    secs: 34
    nsecs: 985000000
  frame_id: ''
name: [FR_FLIPPER, FL_FLIPPER, BR_FLIPPER, BL_FLIPPER, SHOULDER, ARM, FOREARM, WRIST1, WRIST2,
  HAND, FINGER1, FINGER2, FINGER3]
position: [2.72360827467677e-11, 9.888604475191687e-12, -2.0418177522005257e-10, -2.060502568264691e-10, -1.5707959999804366, 2.6354470003565007, 0.47123900046207523, -1.6231560000059315, 0.1047199999990069, 1.745329000005347, 5.401040725772077e-12, 3.835737283353069e-12, 4.550040899609087e-12]
velocity: [-2.4288131450661353e-11, -1.878262309714125e-10, 2.5874885875529475e-10, 7.394265146923814e-12, 5.68275268768017e-10, 3.828819006230776e-10, 1.1939303664142907e-10, -2.4712852962730604e-10, -1.1184355812798443e-10, -5.0084583736629706e-11, 3.882362700974161e-12, -4.433411792612307e-12, -5.781538549037423e-12]
effort: [-0.27748273458139405, -0.08463705331108395, 2.0159937222522393, 2.0583596157126154, -0.2641525987299491, -3.591676208954453, -4.617618110370935, 0.08591370301365434, 0.020465047521201804, -0.04914847988829332, -0.054585624403489554, -0.0376825009682703, -0.0446628965585363]
---
header: 
  seq: 3498
  stamp: 
    secs: 34
    nsecs: 995000000
  frame_id: ''
name: [FR_FLIPPER, FL_FLIPPER, BR_FLIPPER, BL_FLIPPER, SHOULDER, ARM, FOREARM, WRIST1, WRIST2,
  HAND, FINGER1, FINGER2, FINGER3]
position: [3.2493504957022135e-11, 1.4180303849545273e-11, -2.088085417463817e-10, -2.108569686042061e-10, -1.5707959999772099, 2.6354470003379524, 0.4712390004546616, -1.6231560000065304, 0.10471999999873345, 1.7453290000053236, 5.466099795015111e-12, 3.733152675877704e-12, 4.497673067316297e-12]
velocity: [-3.927684227786851e-10, -2.9527125687229365e-10, 5.076991016873748e-10, 8.734383515468029e-10, -2.935373850183967e-10, 1.895137282862448e-09, 3.456209108975029e-10, 9.045099443625689e-11, 6.947810881662821e-11, 2.3383450134557408e-11, -6.874849908453278e-12, 8.231069184144218e-12, 1.1871488976901402e-12]
effort: [-0.23308360388900884, -0.06935911347396768, 1.991045232938424, 1.9731616330992408, -0.16627363638951537, -3.7545199334790906, -4.655314451425029, 0.050271533586357796, 0.002983659881121584, -0.05580825678601053, -0.053322960530391914, -0.03918050159120236, -0.04561916178545861]
---
header: 
  seq: 3499
  stamp: 
    secs: 35
    nsecs:   5000000
  frame_id: ''
name: [FR_FLIPPER, FL_FLIPPER, BR_FLIPPER, BL_FLIPPER, SHOULDER, ARM, FOREARM, WRIST1, WRIST2,
  HAND, FINGER1, FINGER2, FINGER3]
position: [2.7121615391902113e-11, 1.0589413135426995e-11, -2.0588374679154228e-10, -2.0515432018128335e-10, -1.570795999983239, 2.635447000355588, 0.4712390004617859, -1.6231560000047325, 0.10471999999956197, 1.745329000005592, 5.381001200177591e-12, 3.860856079285212e-12, 4.578691592538317e-12]
velocity: [-1.5868557236751712e-10, 5.5987417486102284e-11, -3.2604729717807e-10, -6.164095946397698e-11, -7.870326394260683e-10, -8.628842262810437e-12, 2.236812447061076e-10, 2.7538282293737536e-10, 9.585652847440817e-11, 3.4391043570424304e-11, -7.723731551782953e-12, 9.474285913790529e-12, 1.093072704377373e-11]
effort: [-0.3090662219124962, -0.14740186970512237, 2.1206920349193115, 2.1147364617709608, -0.14919363672970426, -3.3786586987378713, -4.568980536758751, 0.0377662498025103, 0.0030804095906586354, -0.05667588263638375, -0.05388862769079497, -0.038278963040401286, -0.04606981836388747]
---
header: 
  seq: 3500
  stamp: 
    secs: 35
    nsecs:  15000000
  frame_id: ''
name: [FR_FLIPPER, FL_FLIPPER, BR_FLIPPER, BL_FLIPPER, SHOULDER, ARM, FOREARM, WRIST1, WRIST2,
  HAND, FINGER1, FINGER2, FINGER3]
position: [2.8103357965422737e-11, 1.2072247715377848e-11, -2.0789584897346058e-10, -2.0839976716969383e-10, -1.5707959999809178, 2.6354470003470922, 0.4712390004593193, -1.6231560000055836, 0.10471999999903113, 1.7453290000053738, 5.410671910510698e-12, 3.8117287104455475e-12, 4.557257349269146e-12]
velocity: [1.976847275758494e-10, 4.520936821759193e-10, -6.33294886871166e-10, -6.683318444550861e-10, -7.058797906231605e-11, -1.9524980659375894e-09, -5.906542967570018e-10, 5.935966246455266e-11, -1.5978868726887107e-12, 2.4492690081785285e-12, 2.1408664351066966e-12, -5.202337877328189e-12, 1.2512409145661638e-12]
effort: [-0.2909816666357701, -0.15110324391186086, 2.1221708691973795, 2.1183785739010723, -0.16054058464524723, -3.3606300296834926, -4.558790737827761, 0.041390533601014565, 0.004541140751880935, -0.05616593211811585, -0.05402410954797939, -0.03808833067208694, -0.04591205973065187]
---
header: 
  seq: 3501
  stamp: 
    secs: 35
    nsecs:  25000000
  frame_id: ''
name: [FR_FLIPPER, FL_FLIPPER, BR_FLIPPER, BL_FLIPPER, SHOULDER, ARM, FOREARM, WRIST1, WRIST2,
  HAND, FINGER1, FINGER2, FINGER3]
position: [3.1217474568898125e-11, 1.3346734091188028e-11, -2.0719274776773158e-10, -2.0962405032284861e-10, -1.5707959999761307, 2.6354470003409087, 0.47123900045558065, -1.6231560000068674, 0.10471999999872575, 1.745329000005346, 5.477368558715057e-12, 3.726602360032415e-12, 4.479291937364847e-12]
velocity: [-5.152639487969505e-10, -3.4714258141162256e-10, 7.322817432781086e-10, 9.983056185500529e-10, -9.164933961891888e-10, 2.4277357986850534e-09, 6.533238104991957e-10, 3.3843720939458207e-10, 1.9115531941058157e-10, 7.704234500844456e-11, -1.2312234246920112e-11, 1.6032058245970667e-11, 7.924962307340551e-12]
effort: [-0.22950797043658766, -0.08600872096813968, 2.0057336106731873, 1.9841614888716634, -0.09915794989651325, -3.713694236801101, -4.658527336532418, 0.02199317569250668, -0.009425358044174902, -0.06144300613763187, -0.05287545587611374, -0.039720444777241425, -0.04636502294850129]
---
header: 
  seq: 3502
  stamp: 
    secs: 35
    nsecs:  35000000
  frame_id: ''
name: [FR_FLIPPER, FL_FLIPPER, BR_FLIPPER, BL_FLIPPER, SHOULDER, ARM, FOREARM, WRIST1, WRIST2,
  HAND, FINGER1, FINGER2, FINGER3]
position: [2.6940618464386945e-11, 9.94332101465073e-12, -2.049256686651596e-10, -2.0491813237585865e-10, -1.570795999982398, 2.635447000358467, 0.47123900046216033, -1.6231560000051166, 0.1047199999994235, 1.7453290000055235, 5.382722045865761e-12, 3.861716502129296e-12, 4.568435907348341e-12]
velocity: [-4.4559194376435014e-10, -5.80607716145703e-10, 4.979929892307757e-10, 4.800842240600069e-10, 2.657800213554347e-10, 2.19031669005246e-09, 7.419399646300718e-10, -1.855654117801315e-10, -8.064642262031431e-11, -4.5613150757340235e-11, -1.9796184435813825e-12, 5.577998433025525e-12, -9.42512327723913e-13]
effort: [-0.2676157966802012, -0.0754067195065449, 2.022129513648324, 2.0482332713209512, -0.2652784312024673, -3.6281175607595793, -4.630000826393016, 0.08723146209140441, 0.02080415248271852, -0.048900648573006314, -0.054575604887061924, -0.037823750171654257, -0.04469859066828653]
---
header: 
  seq: 3503
  stamp: 
    secs: 35
    nsecs:  45000000
  frame_id: ''
name: [FR_FLIPPER, FL_FLIPPER, BR_FLIPPER, BL_FLIPPER, SHOULDER, ARM, FOREARM, WRIST1, WRIST2,
  HAND, FINGER1, FINGER2, FINGER3]
position: [2.8708601901988873e-11, 1.0636984999409795e-11, -2.0599833221602443e-10, -2.0705764555185857e-10, -1.5707959999783845, 2.6354470003520514, 0.47123900046048217, -1.6231560000066612, 0.10471999999863112, 1.7453290000051982, 5.42521583213329e-12, 3.800876280379839e-12, 4.527843378010487e-12]
velocity: [1.0475135521217776e-10, -1.0542330732527753e-10, 1.4385196954963522e-10, 3.441000797955515e-11, 8.443540533587191e-10, -6.574491722605634e-11, -8.004455332303687e-11, -3.2210620251326377e-10, -1.3305404485365228e-10, -5.2860788437910736e-11, 7.798811110268003e-12, -9.659610339630168e-12, -1.0140170454052225e-11]
effort: [-0.27988229193523506, -0.08889107043975135, 2.0348734525660968, 2.045732349628304, -0.26046808937107635, -3.57809481759874, -4.613599110871823, 0.08337691685571051, 0.019067840888094028, -0.04995001898435063, -0.05460702375452161, -0.03765116246806917, -0.04467029912469109]
---
header: 
  seq: 3504
  stamp: 
    secs: 35
    nsecs:  55000000
  frame_id: ''
name: [FR_FLIPPER, FL_FLIPPER, BR_FLIPPER, BL_FLIPPER, SHOULDER, ARM, FOREARM, WRIST1, WRIST2,
  HAND, FINGER1, FINGER2, FINGER3]
position: [3.2737141881893084e-11, 1.4476012077414835e-11, -2.0838697315037763e-10, -2.1006222260776253e-10, -1.5707959999770533, 2.6354470003369164, 0.471239000454117, -1.6231560000064706, 0.10471999999880624, 1.7453290000053763, 5.471789688016313e-12, 3.7251035589491705e-12, 4.490789684563619e-12]
velocity: [-5.40250362426689e-10, -3.4227856980605424e-10, 8.106423555302669e-10, 9.666657349918666e-10, -5.883603307641e-10, 2.29817917248165e-09, 4.910700644880518e-10, 2.0365255942592843e-10, 1.2572624388534058e-10, 4.7062197039471804e-11, -1.0011251429774164e-11, 1.2300606695642985e-11, 4.105149603455848e-12]
effort: [-0.2330599994901289, -0.07214216212269453, 1.9789211035613203, 1.9739122239308682, -0.1573160620295014, -3.7503306459316343, -4.653928752681232, 0.046247299077792264, 0.0011163951961995473, -0.056688582916110605, -0.05325107910980826, -0.03923885807057564, -0.045688996690373476]
---
header: 
  seq: 3505
  stamp: 
    secs: 35
    nsecs:  65000000
  frame_id: ''
name: [FR_FLIPPER, FL_FLIPPER, BR_FLIPPER, BL_FLIPPER, SHOULDER, ARM, FOREARM, WRIST1, WRIST2,
  HAND, FINGER1, FINGER2, FINGER3]
position: [2.4008948258311125e-11, 8.173903285994821e-12, -2.0233522550570232e-10, -2.028332295959251e-10, -1.57079599998092, 2.6354470003644797, 0.4712390004646144, -1.623156000005699, 0.10471999999932906, 1.7453290000055064, 5.393047119994776e-12, 3.859995656441128e-12, 4.547681675681756e-12]
